port_id,port_name,country_id,latitude,longitude
1,Koper,1,45.546,13.729
2,Genoa,2,44.245736427816034,12.994661178845693
3,Trieste,2,44.04437951450754,12.18962067358383
4,Ravenna,2,44.40293429798213,12.970319654224005
5,Venice,2,44.29629929399027,12.644670859000962
